[
    {
        "name":"Start",
        "coordinates":[
            90.4251,
            23.726
        ]
    },
    {
        "layer":"Customer Care Centers",
        "name":"Anchorage, AK",
        "coordinates":[
            -149.8699963,
            61.16863350000001,
            "0"
        ],
        "extended":{
            "Representatives":"Robert Case, Regional Manager\nPat Marre, Branch Manager",
            "rep-Regional Manager":"Matt Loya",
            "rep-Branch Manager":"Pat Marre",
            "rep-CSR":"",
            "rep-Warehouse Manager":"",
            "rep-District Manager":"",
            "rep-Division Manager":"",
            "rep-Branch Operations Manager":"",
            "Mailing":"",
            "Address":"640 East 57th Place",
            "City":"Anchorage",
            "State":"AK",
            "Zip":"99518",
            "Direct":"907-272-2467",
            "Fax":"907-277-6675",
            "Email":"anchorage_info@distributioninternational.com",
            "Hours":""
        },
        "distance":9153.040954410973
    },
    {
        "layer":"Customer Care Centers",
        "name":"Crossroads C&I, Edmonton",
        "coordinates":[
            -113.631401,
            53.560108,
            "0"
        ],
        "extended":{
            "Representatives":"Greg Kamprath, Regional Director\nMartin Smith, Regional Operations Manager",
            "rep-Regional Manager":"Greg Kamprath",
            "rep-Branch Manager":"Greg Kamprath",
            "rep-CSR":"Pam Tost",
            "rep-Warehouse Manager":"",
            "rep-District Manager":"",
            "rep-Division Manager":"",
            "rep-Branch Operations Manager":"",
            "Mailing":"",
            "Address":"11104 â€“ 180 St",
            "City":"Edmonton",
            "State":"AB",
            "Zip":"T5S 2M2",
            "Direct":"780-452-7410",
            "Fax":"780-453-5715",
            "Email":"Edmsales@crossroadsci.com",
            "Hours":"7AM - 5PM Mon - Fri"
        },
        "distance":11114.345352856713
    },
    {
        "layer":"Customer Care Centers",
        "name":"Crossroads C&I, Burnaby",
        "coordinates":[
            -122.9560272,
            49.2512364,
            "0"
        ],
        "extended":{
            "Representatives":"Greg Kamprath, Regional Director\nBrian Prescott, Branch Manager",
            "rep-Regional Manager":"Greg Kamprath",
            "rep-Branch Manager":"Brian Prescott",
            "rep-CSR":"Peter Bergen, Jason Reist, Glen Town",
            "rep-Warehouse Manager":"",
            "rep-District Manager":"",
            "rep-Division Manager":"",
            "rep-Branch Operations Manager":"",
            "Mailing":"",
            "Address":"3690 Bainbridge Avenue",
            "City":"Burnaby",
            "State":"BC",
            "Zip":"V5A 3R1",
            "Direct":"604-421-1221",
            "Fax":"604-421-1203",
            "Email":"bbysales@crossroadsci.com",
            "Hours":"Order Desk / Warehouse 8AM - 4:30PM Mon - Fri\nCustomer pick-up 6:30AM - 4:30PM Mon - Fri"
        },
        "distance":11252.504690734577
    },
    {
        "layer":"Customer Care Centers",
        "name":"Crossroads C&I, Calgary",
        "coordinates":[
            -113.951869,
            50.98786279999999,
            "0"
        ],
        "extended":{
            "Representatives":"Greg Kamprath, Regional Director\nDavid Quistberg, Branch Manager",
            "rep-Regional Manager":"Greg Kamprath",
            "rep-Branch Manager":"David Quistberg",
            "rep-CSR":"",
            "rep-Warehouse Manager":"",
            "rep-District Manager":"",
            "rep-Division Manager":"",
            "rep-Branch Operations Manager":"",
            "Mailing":"",
            "Address":"#11 5505 72 Avenue SE",
            "City":"Calgary",
            "State":"AB",
            "Zip":"T2C 3C4",
            "Direct":"403-236-9760",
            "Fax":"403-236-8661 ",
            "Email":"cgysales@crossroadsci.com",
            "Hours":"6AM-5:30PM Mon-Fri MT"
        },
        "distance":11370.244122080272
    },
    {
        "layer":"Customer Care Centers",
        "name":"Renton, WA",
        "coordinates":[
            -122.2301552,
            47.4731972,
            "0"
        ],
        "extended":{
            "Representatives":"Robert Case, Regional Manager\nBrian Bauer, Branch Operations Manager",
            "rep-Regional Manager":"Robert Case",
            "rep-Branch Manager":"Brian Bauer",
            "rep-CSR":"",
            "rep-Warehouse Manager":"",
            "rep-District Manager":"",
            "rep-Division Manager":"",
            "rep-Branch Operations Manager":"",
            "Mailing":"",
            "Address":"700 Powell Avenue Southwest",
            "City":"Renton",
            "State":"WA",
            "Zip":"98057",
            "Direct":"425-228-4111",
            "Fax":"425-228-8807",
            "Email":"renton_info@distributioninternational.com",
            "Hours":""
        },
        "distance":11449.905672994872
    },
    {
        "layer":"Customer Care Centers",
        "name":"Spokane Valley, WA",
        "coordinates":[
            -117.31404,
            47.6679726,
            "0"
        ],
        "extended":{
            "Representatives":"Robert Case, Regional Manager\nRudy Kadzejs, Branch Manager",
            "rep-Regional Manager":"Robert Case",
            "rep-Branch Manager":"Jordon Merrill",
            "rep-CSR":"",
            "rep-Warehouse Manager":"",
            "rep-District Manager":"",
            "rep-Division Manager":"",
            "rep-Branch Operations Manager":"",
            "Mailing":"PO Box 3436",
            "Address":"1206 North Thierman Road",
            "City":"Spokane Valley",
            "State":"WA",
            "Zip":"99220",
            "Direct":"509-928-0315",
            "Fax":"509-926-9083",
            "Email":"spokane_info@distributioninternational.com",
            "Hours":""
        },
        "distance":11605.576733526575
    },
    {
        "layer":"Customer Care Centers",
        "name":"Portland, OR",
        "coordinates":[
            -122.467113,
            45.5512293,
            "0"
        ],
        "extended":{
            "Representatives":"Robert Case, Regional Manager\nLorne Christophersen, Branch Manager",
            "rep-Regional Manager":"Robert Case",
            "rep-Branch Manager":"Lorne Christophersen",
            "rep-CSR":"",
            "rep-Warehouse Manager":"",
            "rep-District Manager":"",
            "rep-Division Manager":"",
            "rep-Branch Operations Manager":"",
            "Mailing":"PO Box 39972",
            "Address":"19039 Northeast Portal Way",
            "City":"Portland ",
            "State":"OR",
            "Zip":"97230",
            "Direct":"503-492-9999",
            "Fax":"503-491-4999",
            "Email":"portland_info@distributioninternational.com",
            "Hours":""
        },
        "distance":11624.454959335371
    },
    {
        "layer":"Customer Care Centers",
        "name":"Eugene, OR",
        "coordinates":[
            -123.1619892,
            44.0640101,
            "0"
        ],
        "extended":{
            "Representatives":"Robert Case, Regional Manager\nVern Meyers, Branch Operations Manager\nHeidi Hensley, Customer Service Representative",
            "rep-Regional Manager":"Robert Case",
            "rep-Branch Manager":"Lee Powell",
            "rep-CSR":"",
            "rep-Warehouse Manager":"",
            "rep-District Manager":"",
            "rep-Division Manager":"",
            "rep-Branch Operations Manager":"",
            "Mailing":"",
            "Address":"3980 Roosevelt Blvd., Unit A",
            "City":"Eugene",
            "State":"OR",
            "Zip":"97402",
            "Direct":"541-484-0486",
            "Fax":"541-343-5869",
            "Email":"eugene_info@distributioninternational.com",
            "Hours":""
        },
        "distance":11737.256351253654
    },
    {
        "layer":"Customer Care Centers",
        "name":"Crossroads C&I, Dartmouth",
        "coordinates":[
            -63.5810067,
            44.711952,
            "0"
        ],
        "extended":{
            "Representatives":"Bob Fellows, Regional Director\nDoug Reid, Regional Operations Manager",
            "rep-Regional Manager":"Clint McNeill",
            "rep-Branch Manager":"",
            "rep-CSR":"Dave MacKenzie",
            "rep-Warehouse Manager":"",
            "rep-District Manager":"",
            "rep-Division Manager":"",
            "rep-Branch Operations Manager":"",
            "Mailing":"",
            "Address":"122 Dorey Avenue\nUnit 8\n",
            "City":"Dartmouth",
            "State":"NS",
            "Zip":"B3B 0B1",
            "Direct":"902-468-2550",
            "Fax":"902-468-2552",
            "Email":"DartmouthSales@crossroadsci.com",
            "Hours":"7AM - 5PM Mon - Fri"
        },
        "distance":11960.067547251469
    },
    {
        "layer":"Customer Care Centers",
        "name":"Crossroads C&I, Quebec City",
        "coordinates":[
            -71.3010646,
            46.788031,
            "0"
        ],
        "extended":{
            "Representatives":"Bob Fellows, Regional Director\nDan Beauregard, Branch Manager",
            "rep-Regional Manager":"Yvon Simard",
            "rep-Branch Manager":"",
            "rep-CSR":"France Poitras",
            "rep-Warehouse Manager":"",
            "rep-District Manager":"",
            "rep-Division Manager":"",
            "rep-Branch Operations Manager":"",
            "Mailing":"",
            "Address":"2565 Rue Watt",
            "City":"Sainte-Foy",
            "State":"QC",
            "Zip":"G1P 3T2",
            "Direct":"418-659-4444",
            "Fax":"418-659-1800",
            "Email":"QuebecCitySales@crossroadsci.com",
            "Hours":"7AM - 5PM Mon - Fri"
        },
        "distance":11961.863148434744
    },
    {
        "layer":"Customer Care Centers",
        "name":"Billings, MT",
        "coordinates":[
            -108.5923428,
            45.7344873,
            "0"
        ],
        "extended":{
            "Representatives":"A.J. Lauer, Regional Manager\nSibyl Schug, Branch Manager",
            "rep-Regional Manager":"A.J. Lauer",
            "rep-Branch Manager":"Sibyl Schug",
            "rep-CSR":"Jana Sindelar / Tony Contreraz",
            "rep-Warehouse Manager":"",
            "rep-District Manager":"",
            "rep-Division Manager":"",
            "rep-Branch Operations Manager":"",
            "Mailing":"",
            "Address":"7015 Trade Center Avenue",
            "City":"Billings",
            "State":"MT",
            "Zip":"59101",
            "Direct":"406-652-2730",
            "Fax":"406-652-6887",
            "Email":"billings_info@distributioninternational.com",
            "Hours":"7:00 AM - 4:30 PM, M-F"
        },
        "distance":12055.730605718169
    },
    {
        "layer":"Customer Care Centers",
        "name":"Bismarck, ND",
        "coordinates":[
            -100.7770166,
            46.8882072,
            "0"
        ],
        "extended":{
            "Representatives":"A.J. Lauer, Regional Manager\nBen Goergen, Branch Manager",
            "rep-Regional Manager":"A.J. Lauer",
            "rep-Branch Manager":"Ben Goergen",
            "rep-CSR":"",
            "rep-Warehouse Manager":"Tim Ollenburger",
            "rep-District Manager":"",
            "rep-Division Manager":"",
            "rep-Branch Operations Manager":"",
            "Mailing":"",
            "Address":"7516 Yukon Drive",
            "City":"Bismarck",
            "State":"ND",
            "Zip":"58503",
            "Direct":"701-255-5777",
            "Fax":"701-255-3034",
            "Email":"bismarck_info@distributioninternational.com",
            "Hours":"7:00 AM - 4:30 PM, M-F"
        },
        "distance":12082.813904415201
    },
    {
        "layer":"Customer Care Centers",
        "name":"Crossroads C&I, Montreal",
        "coordinates":[
            -73.6762272,
            45.4934594,
            "0"
        ],
        "extended":{
            "Representatives":"Bob Fellows, Regional Director\nDan Beauregard, Branch Manager",
            "rep-Regional Manager":"Yvon Simard",
            "rep-Branch Manager":"",
            "rep-CSR":"Carol Langevin",
            "rep-Warehouse Manager":"",
            "rep-District Manager":"",
            "rep-Division Manager":"",
            "rep-Branch Operations Manager":"",
            "Mailing":"",
            "Address":"5760 Cote de Liesse",
            "City":"Ville Mont-Royal",
            "State":"QC",
            "Zip":"H4T 1B1",
            "Direct":"514-738-1916",
            "Fax":"514-738-2058",
            "Email":"MontrealSales@crossroadsci.com",
            "Hours":"7AM - 5PM Mon - Fri"
        },
        "distance":12151.761906916985
    },
    {
        "layer":"Customer Care Centers",
        "name":"Crossroads C&I, Ottawa",
        "coordinates":[
            -75.6201552,
            45.3207702,
            "0"
        ],
        "extended":{
            "Representatives":"Bob Fellows, Regional Director\nPierre Lavallee, Branch Manager",
            "rep-Regional Manager":"",
            "rep-Branch Manager":"Pierre Lavallee",
            "rep-CSR":"Patrick Lacroix",
            "rep-Warehouse Manager":"",
            "rep-District Manager":"",
            "rep-Division Manager":"",
            "rep-Branch Operations Manager":"",
            "Mailing":"",
            "Address":"2766 Fenton Road",
            "City":"Gloucester",
            "State":"ON",
            "Zip":"K1T 3T7",
            "Direct":"613-822-2225",
            "Fax":"613-822-1398",
            "Email":"OttawaSales@crossroadsci.com",
            "Hours":"7AM - 5PM Mon - Fri"
        },
        "distance":12208.321099899196
    },
    {
        "layer":"Customer Care Centers",
        "name":"Reno/Sparks, NV",
        "coordinates":[
            -119.7236582,
            39.5161129,
            "0"
        ],
        "extended":{
            "Representatives":"Richard Kemp, Regional Manager\nChris Fitzgerald, Area Manager",
            "rep-Regional Manager":"Richard Kemp",
            "rep-Branch Manager":"",
            "rep-CSR":"",
            "rep-Warehouse Manager":"",
            "rep-District Manager":"",
            "rep-Division Manager":"",
            "rep-Branch Operations Manager":"",
            "Mailing":"",
            "Address":"1263 Spice Island Drive",
            "City":"Sparks",
            "State":"NV",
            "Zip":"89431",
            "Direct":"775-351-1067",
            "Fax":"775-351-1085",
            "Email":"reno_info@distributioninternational.com",
            "Hours":""
        },
        "distance":12317.51447281706
    },
    {
        "layer":"Customer Care Centers",
        "name":"Sacramento, CA",
        "coordinates":[
            -121.483883,
            38.644232,
            "0"
        ],
        "extended":{
            "Representatives":"John Azevedo,  Regional Manager\nNick Nicassio, Branch Manager\nKim Ramos, CSR",
            "rep-Regional Manager":"John Azevedo",
            "rep-Branch Manager":"Nick Nicassio",
            "rep-CSR":"Kim Raymos",
            "rep-Warehouse Manager":"",
            "rep-District Manager":"",
            "rep-Division Manager":"",
            "rep-Branch Operations Manager":"",
            "Mailing":"",
            "Address":"4119 S. Market Ct., Unit B",
            "City":"Sacramento",
            "State":"CA",
            "Zip":"95834",
            "Direct":"916-565-1192",
            "Fax":"916-565-1179",
            "Email":"sacramento_info@distributioninternational.com",
            "Hours":""
        },
        "distance":12324.495141583491
    },
    {
        "layer":"Customer Care Centers",
        "name":"Benicia, CA",
        "coordinates":[
            -122.1251026,
            38.0777337,
            "0"
        ],
        "extended":{
            "Representatives":"Chris Fitzgerald, Branch Manager\nRhiannon Umali, CSR",
            "rep-Regional Manager":"",
            "rep-Branch Manager":"Chris Fitzgerald",
            "rep-CSR":"Josephine Jones",
            "rep-Warehouse Manager":"",
            "rep-District Manager":"",
            "rep-Division Manager":"",
            "rep-Branch Operations Manager":"",
            "Mailing":"",
            "Address":"537 Stone Rd., Ste. D",
            "City":"Benicia",
            "State":"CA",
            "Zip":"94510",
            "Direct":"707-741-2963",
            "Fax":"707-747-5778",
            "Email":"benicia_info@distributioninternational.com",
            "Hours":""
        },
        "distance":12348.964526283715
    },
    {
        "layer":"Customer Care Centers",
        "name":"Crossroads C&I, Toronto",
        "coordinates":[
            -79.5731624,
            43.6943074,
            "0"
        ],
        "extended":{
            "Representatives":"Bob Fellows, Regional Director\nKen Irwin, Branch Manager",
            "rep-Regional Manager":"Clint McNeill",
            "rep-Branch Manager":"",
            "rep-CSR":"Sue-Anne Chapman",
            "rep-Warehouse Manager":"",
            "rep-District Manager":"",
            "rep-Division Manager":"",
            "rep-Branch Operations Manager":"",
            "Mailing":"",
            "Address":"1000 Martin Grove Road",
            "City":"Toronto",
            "State":"ON",
            "Zip":"M9W 4V8",
            "Direct":"416-241-8663",
            "Fax":"416-241-0306",
            "Email":"TorontoSales@crossroadsci.com",
            "Hours":"7AM - 5PM Mon - Fri"
        },
        "distance":12449.035479667626
    },
    {
        "layer":"Customer Care Centers",
        "name":"Crossroads C&I, Kitchener",
        "coordinates":[
            -80.4598,
            43.4799999,
            "0"
        ],
        "extended":{
            "Representatives":"Bob Fellows, Regional Director\nColleen Day, Operations Supervisor",
            "rep-Regional Manager":"",
            "rep-Branch Manager":"Tim Sims",
            "rep-CSR":"Colleen Chandler",
            "rep-Warehouse Manager":"",
            "rep-District Manager":"",
            "rep-Division Manager":"",
            "rep-Branch Operations Manager":"",
            "Mailing":"",
            "Address":"145 Hollinger Crescent",
            "City":"Kitchener",
            "State":"ON",
            "Zip":"N2K 2Z2",
            "Direct":"519-744-3350",
            "Fax":"519-744-3058",
            "Email":"KitchenerSales@crossroadsci.com",
            "Hours":"7AM - 5PM Mon - Fri"
        },
        "distance":12484.259503957019
    },
    {
        "layer":"Customer Care Centers",
        "name":"Salt Lake City, UT",
        "coordinates":[
            -111.9175611,
            40.7076934,
            "0"
        ],
        "extended":{
            "Representatives":"A.J. Lauer, Regional Manager\nJared McLachlan, Branch Manager\nErika Nebeker, Customer Service Manager",
            "rep-Regional Manager":"A.J. Lauer",
            "rep-Branch Manager":"Jared McLachlan",
            "rep-CSR":"Erika Nebeker",
            "rep-Warehouse Manager":"Tyler Oman",
            "rep-District Manager":"",
            "rep-Division Manager":"",
            "rep-Branch Operations Manager":"",
            "Mailing":"",
            "Address":"909 West 2900 South",
            "City":"Salt Lake City",
            "State":"UT",
            "Zip":"84119",
            "Direct":"801-972-1821",
            "Fax":"801-972-4772",
            "Email":"saltlakecity_info@distributioninternational.com",
            "Hours":"7:00 AM - 4:30 PM, M-F"
        },
        "distance":12487.19175572207
    },
    {
        "layer":"Customer Care Centers",
        "name":"Crossroads C&I, Hamilton",
        "coordinates":[
            -79.7054551,
            43.2246941,
            "0"
        ],
        "extended":{
            "Representatives":"Bob Fellows, Regional Director\nWalt Oliveira, Branch Manager",
            "rep-Regional Manager":"Walt Oliveira",
            "rep-Branch Manager":"",
            "rep-CSR":"Stella Whyte",
            "rep-Warehouse Manager":"",
            "rep-District Manager":"",
            "rep-Division Manager":"",
            "rep-Branch Operations Manager":"",
            "Mailing":"",
            "Address":"563 Barton Street",
            "City":"Stoney Creek",
            "State":"ON",
            "Zip":"L8E 5S1",
            "Direct":"905-643-9902",
            "Fax":"905-643-9904",
            "Email":"HamiltonSales@crossroadsci.com",
            "Hours":"7AM - 5PM Mon - Fri"
        },
        "distance":12502.310168689542
    },
    {
        "layer":"Customer Care Centers",
        "name":"Midland, MI",
        "coordinates":[
            -84.1856291,
            43.6005423,
            "0"
        ],
        "extended":{
            "Representatives":"John Brooks, Regional Manager\nRon Curran, Branch Operations Manager",
            "rep-Regional Manager":"John Brooks",
            "rep-Branch Manager":"Ron Curran",
            "rep-CSR":"Mark Haubenstricker",
            "rep-Warehouse Manager":"",
            "rep-District Manager":"",
            "rep-Division Manager":"",
            "rep-Branch Operations Manager":"",
            "Mailing":"",
            "Address":"3405 Centennial Dr, Ste. 1",
            "City":"Midland",
            "State":"MI",
            "Zip":"48642",
            "Direct":"989-496-3661",
            "Fax":"989-496-0588",
            "Email":"midland_info@distributioninternational.com",
            "Hours":"7:00 AM - 4:30 PM, M-F"
        },
        "distance":12508.49583340348
    },
    {
        "layer":"Customer Care Centers",
        "name":"Crossroads C&I, London",
        "coordinates":[
            -81.17776429999999,
            43.0102442,
            "0"
        ],
        "extended":{
            "Representatives":"Bob Fellows, Regional Director\nWalt Oliveira, Branch Manager",
            "rep-Regional Manager":"Walt Oliveira",
            "rep-Branch Manager":"",
            "rep-CSR":"Steila Wayner",
            "rep-Warehouse Manager":"",
            "rep-District Manager":"",
            "rep-Division Manager":"",
            "rep-Branch Operations Manager":"",
            "Mailing":"",
            "Address":"544 Clarke Road",
            "City":"London",
            "State":"ON",
            "Zip":"N5V 3K5",
            "Direct":"519-451-0180",
            "Fax":"519-451-1796",
            "Email":"LondonSales@crossroadsci.com",
            "Hours":"7AM - 5PM Mon - Fri"
        },
        "distance":12544.669927267249
    },
    {
        "layer":"Customer Care Centers",
        "name":"Crossroads C&I, Sarina",
        "coordinates":[
            -82.4084419,
            42.9570065,
            "0"
        ],
        "extended":{
            "Representatives":"Bob Fellows, Regional Director\nWalt Oliveira, Branch Manager",
            "rep-Regional Manager":"Walt Oliveira",
            "rep-Branch Manager":"",
            "rep-CSR":"Honey O'Brien",
            "rep-Warehouse Manager":"",
            "rep-District Manager":"",
            "rep-Division Manager":"",
            "rep-Branch Operations Manager":"",
            "Mailing":"",
            "Address":"272 St. Andrew Street",
            "City":"Sarina",
            "State":"ON",
            "Zip":"N7T 8G8",
            "Direct":"519-336-9590",
            "Fax":"519-336-9954",
            "Email":"SarniaSales@crossroadsci.com",
            "Hours":"7AM - 5PM Mon - Fri"
        },
        "distance":12564.006513542752
    },
    {
        "layer":"Customer Care Centers",
        "name":"Grand Rapids, MI",
        "coordinates":[
            -85.74246869999999,
            43.0189372,
            "0"
        ],
        "extended":{
            "Representatives":"John Brooks, Regional Manager\nDan Wilson, Branch Manager\nJoel Phelps, CSR",
            "rep-Regional Manager":"John Brooks",
            "rep-Branch Manager":"Dan Wilson",
            "rep-CSR":"Joel Phelps",
            "rep-Warehouse Manager":"",
            "rep-District Manager":"",
            "rep-Division Manager":"",
            "rep-Branch Operations Manager":"",
            "Mailing":"",
            "Address":"3056 Walker Ridge Drive NW, Ste. C",
            "City":"Grand Rapids",
            "State":"MI",
            "Zip":"49544",
            "Direct":"616-791-1997",
            "Fax":"616-791-4114",
            "Email":"grandrapids_info@distributionintl.com",
            "Hours":"7:00 AM - 4:00 PM,  M-F"
        },
        "distance":12583.012887811068
    },
    {
        "layer":"Customer Care Centers",
        "name":"Redford, MI",
        "coordinates":[
            -83.2891458,
            42.3799646,
            "0"
        ],
        "extended":{
            "Representatives":"John Brooks, Regional Manager\nMike Kraydich, Jr., Branch Manager",
            "rep-Regional Manager":"John Brooks",
            "rep-Branch Manager":"Mike Kraydich, Jr.",
            "rep-CSR":"Darrell Little",
            "rep-Warehouse Manager":"Adam Harvey",
            "rep-District Manager":"",
            "rep-Division Manager":"",
            "rep-Branch Operations Manager":"",
            "Mailing":"",
            "Address":"25301 Glendale",
            "City":"Redford",
            "State":"MI",
            "Zip":"48239",
            "Direct":"313-592-4550",
            "Fax":"313-592-8619",
            "Email":"Redford_info@distributioninternational.com",
            "Hours":"7:00 AM - 4:00 PM, M-F"
        },
        "distance":12636.137331057978
    },
    {
        "layer":"Customer Care Centers",
        "name":"Hicksville, NY",
        "coordinates":[
            -73.5038248,
            40.7615782,
            "0"
        ],
        "extended":{
            "Representatives":"George Lionikis, Regional Manager\nVincent Aiello, Branch Manager\nRich Ruymen, CSR",
            "rep-Regional Manager":"George Lionikis",
            "rep-Branch Manager":"Vincent Aiello",
            "rep-CSR":"Rick Ruymen",
            "rep-Warehouse Manager":"",
            "rep-District Manager":"",
            "rep-Division Manager":"",
            "rep-Branch Operations Manager":"",
            "Mailing":"",
            "Address":"300 Karin Ln",
            "City":"Hicksville",
            "State":"NY",
            "Zip":"11801",
            "Direct":"516-932-9170",
            "Fax":"516-932-9171",
            "Email":"hicksville_info@distributioninternational.com",
            "Hours":"7AM - 5:00PM Mon - Fri"
        },
        "distance":12654.415382264522
    },
    {
        "layer":"Customer Care Centers",
        "name":"Sugar Notch, PA",
        "coordinates":[
            -75.9678237,
            41.1891352,
            "0"
        ],
        "extended":{
            "Representatives":"George Lionikis, Regional Manager\nBob Osick, Branch Operations Manager\nDave Bealla, CSR",
            "rep-Regional Manager":"George Lionikis",
            "rep-Branch Manager":"Bob Osick",
            "rep-CSR":"Dave Bealla",
            "rep-Warehouse Manager":"",
            "rep-District Manager":"",
            "rep-Division Manager":"",
            "rep-Branch Operations Manager":"",
            "Mailing":"",
            "Address":"1118 Hanover Street ",
            "City":"Sugar Notch",
            "State":"PA",
            "Zip":"18706",
            "Direct":"570-824-7075",
            "Fax":"570-824-7206",
            "Email":"sugar_notch_info@distributioninternational.com",
            "Hours":"7AM - 4:30PM Mon - Fri"
        },
        "distance":12661.489700263784
    },
    {
        "layer":"Customer Care Centers",
        "name":"East Rutherford, NJ",
        "coordinates":[
            -74.09224499999999,
            40.8203958,
            "0"
        ],
        "extended":{
            "Representatives":"George Lionikis, Regional Manager\nJosh Murphy, District Manager\nBill Daniels, CSR",
            "rep-Regional Manager":"Josh Murphy",
            "rep-Branch Manager":"",
            "rep-CSR":"Bill Daniels",
            "rep-Warehouse Manager":"",
            "rep-District Manager":"",
            "rep-Division Manager":"",
            "rep-Branch Operations Manager":"",
            "Mailing":"",
            "Address":"343 Murray Hill Pkwy",
            "City":"East Rutherford",
            "State":"NJ",
            "Zip":"07073",
            "Direct":"201-254-3274",
            "Fax":"201-933-4281",
            "Email":"east_rutherford_info@distributioninternational.com",
            "Hours":"7AM-5PM Mon-Fri"
        },
        "distance":12661.601958036066
    },
    {
        "layer":"Customer Care Centers",
        "name":"New York, NY",
        "coordinates":[
            -73.9505855,
            40.7402242,
            "0"
        ],
        "extended":{
            "Representatives":"George Lionikis, Regional Manager\nJosh Murphy, District Manager\nPatrick White, Branch Manager\nAngelo Coniglione, CSR",
            "rep-Regional Manager":"Josh Murphy",
            "rep-Branch Manager":"Josh Murphy",
            "rep-CSR":"Angelo Coniglione",
            "rep-Warehouse Manager":"",
            "rep-District Manager":"",
            "rep-Division Manager":"",
            "rep-Branch Operations Manager":"",
            "Mailing":"",
            "Address":"11-40 Borden Ave",
            "City":"Long Island City",
            "State":"NY",
            "Zip":"11101",
            "Direct":"718-472-4006",
            "Fax":"718-937-8962",
            "Email":"new_york_info@distributioninternational.com",
            "Hours":"6AM-5PM Mon-Fri\n6:30AM-10:30AM Sat\n"
        },
        "distance":12666.98697540696
    },
    {
        "layer":"Customer Care Centers",
        "name":"Perth Amboy, NJ",
        "coordinates":[
            -74.2734097,
            40.5185011,
            "0"
        ],
        "extended":{
            "Representatives":"George Lionikis, Regional Manager\nVictor Betro, Branch Operations Manager",
            "rep-Regional Manager":"George Lionikis",
            "rep-Branch Manager":"George Lionikis",
            "rep-CSR":"",
            "rep-Warehouse Manager":"",
            "rep-District Manager":"",
            "rep-Division Manager":"",
            "rep-Branch Operations Manager":"",
            "Mailing":"",
            "Address":"525 Johnstone St",
            "City":"Perth Amboy",
            "State":"NJ",
            "Zip":"08861",
            "Direct":"732-442-5656",
            "Fax":"732-442-1583",
            "Email":"perthamboy_info@distributioninternational.com",
            "Hours":"7AM - 5:30PM Mon - Fri"
        },
        "distance":12698.026300827172
    },
    {
        "layer":"Customer Care Centers",
        "name":"Toledo, OH",
        "coordinates":[
            -83.57079759999999,
            41.7187861,
            "0"
        ],
        "extended":{
            "Representatives":"John Brooks, Regional Manager\nJoe Przeniczny, Branch Manager\nBlaine Grassley, Customer Service Representative",
            "rep-Regional Manager":"John Brooks",
            "rep-Branch Manager":"Joe Przeniczny",
            "rep-CSR":"Blaine Grassley",
            "rep-Warehouse Manager":"",
            "rep-District Manager":"",
            "rep-Division Manager":"",
            "rep-Branch Operations Manager":"",
            "Mailing":"",
            "Address":"5655 Opportunity Dr., #8",
            "City":"Toledo ",
            "State":"OH",
            "Zip":"43612",
            "Direct":"419-476-0344",
            "Fax":"",
            "Email":"toledo_info@distributioninternational.com",
            "Hours":"6:30 PM - 4:30 PM, M-F"
        },
        "distance":12711.727038616824
    },
    {
        "layer":"Customer Care Centers",
        "name":"Hammond, IN",
        "coordinates":[
            -87.4694804,
            41.59789139999999,
            "0"
        ],
        "extended":{
            "Representatives":"John Brooks, Regional Manager\nRon Paraday, Branch Manager\nDene Klebs, Customer Service Representative",
            "rep-Regional Manager":"John Brooks",
            "rep-Branch Manager":"Ron Paraday",
            "rep-CSR":"Dena Klebs",
            "rep-Warehouse Manager":"",
            "rep-District Manager":"",
            "rep-Division Manager":"",
            "rep-Branch Operations Manager":"",
            "Mailing":"",
            "Address":"2501 E. 165th St., Ste. 3",
            "City":"Hammond ",
            "State":"IN",
            "Zip":"46320",
            "Direct":"219-845-2008",
            "Fax":"",
            "Email":"hammond_info@distributioninternational.com",
            "Hours":"8:30 AM - 5:00 PM, M-F"
        },
        "distance":12748.161480420915
    },
    {
        "layer":"Customer Care Centers",
        "name":"Pennsauken, NJ",
        "coordinates":[
            -75.0584681,
            39.97020699999999,
            "0"
        ],
        "extended":{
            "Representatives":"George Lionikis, Regional Manager\nAnthony Wilczynski, Branch Operations Manager\nKahil Williams, CSR",
            "rep-Regional Manager":"George Lionikis",
            "rep-Branch Manager":"Anthony Wilczynski",
            "rep-CSR":"Kahil Williams",
            "rep-Warehouse Manager":"",
            "rep-District Manager":"",
            "rep-Division Manager":"",
            "rep-Branch Operations Manager":"",
            "Mailing":"",
            "Address":"965 Bethel Avenue, Ste. C",
            "City":"Pennsauken",
            "State":"NJ",
            "Zip":"08110",
            "Direct":"856-910-8814",
            "Fax":"856-910-8864",
            "Email":"pennsauken_info@distributioninternational.com",
            "Hours":"6:30AM - 4:30PM Mon - Fri"
        },
        "distance":12774.165918674866
    },
    {
        "layer":"Customer Care Centers",
        "name":"Denver, CO",
        "coordinates":[
            -104.8511169,
            39.7719127,
            "0"
        ],
        "extended":{
            "Representatives":"A.J. Lauer, Regional Manager\nJeff Velasco, Branch Manager\nNicole Winter, Customer Service Manager",
            "rep-Regional Manager":"A.J. Lauer",
            "rep-Branch Manager":"Jeff Velasco",
            "rep-CSR":"Nicole Winter",
            "rep-Warehouse Manager":"Aaron Hendricks",
            "rep-District Manager":"",
            "rep-Division Manager":"",
            "rep-Branch Operations Manager":"",
            "Mailing":"PO Box 39972",
            "Address":"3950 Nome Street, Unit H",
            "City":"Denver",
            "State":"CO",
            "Zip":"80239",
            "Direct":"303-373-0651",
            "Fax":"303-373-0729",
            "Email":"denver_info@distributioninternational.com",
            "Hours":"7:00 AM - 4:30 PM, M-F"
        },
        "distance":12778.635932049576
    },
    {
        "layer":"Customer Care Centers",
        "name":"York, PA",
        "coordinates":[
            -76.7734164,
            39.9508885,
            "0"
        ],
        "extended":{
            "Representatives":"Ryan Splitt- Regional Manager\nLyric Mcvicker, CSR",
            "rep-Regional Manager":"Ryan Splitt",
            "rep-Branch Manager":"",
            "rep-CSR":"Kevin Jenkins",
            "rep-Warehouse Manager":"",
            "rep-District Manager":"",
            "rep-Division Manager":"",
            "rep-Branch Operations Manager":"",
            "Mailing":"",
            "Address":"70 South Gotwalt St",
            "City":"York",
            "State":"PA",
            "Zip":"17404",
            "Direct":"717-792-2504",
            "Fax":"717-792-4245",
            "Email":"york_info@distributioninternational.com",
            "Hours":"6AM - 4:30PM Mon - Fri"
        },
        "distance":12811.128680581509
    },
    {
        "layer":"Customer Care Centers",
        "name":"Bridgeville, PA",
        "coordinates":[
            -80.1018347,
            40.3655687,
            "0"
        ],
        "extended":{
            "Representatives":"Gary Thompson, Regional Manager\nRob Vietmeier, Outside Sales Representative\nRyan DeLouis, CSR",
            "rep-Regional Manager":"",
            "rep-Branch Manager":"",
            "rep-CSR":"",
            "rep-Warehouse Manager":"",
            "rep-District Manager":"",
            "rep-Division Manager":"",
            "rep-Branch Operations Manager":"",
            "Mailing":"",
            "Address":"580 Mayer Street, Unit 12",
            "City":"Bridgeville",
            "State":"PA",
            "Zip":"15017",
            "Direct":"412-838-9199",
            "Fax":"",
            "Email":"",
            "Hours":""
        },
        "distance":12821.2270339987
    },
    {
        "layer":"Customer Care Centers",
        "name":"Las Vegas, NV",
        "coordinates":[
            -115.1916023,
            36.0927111,
            "0"
        ],
        "extended":{
            "Representatives":"Alan Woloschuck, Regional Manager\nRamon Gallego, District Manager\nWilliam Ward-Blount, Branch Manager",
            "rep-Regional Manager":"Alan Woloschuk",
            "rep-Branch Manager":"William Ward-Blount",
            "rep-CSR":"Brian Berk",
            "rep-Warehouse Manager":"",
            "rep-District Manager":"Ramon Gallego",
            "rep-Division Manager":"",
            "rep-Branch Operations Manager":"",
            "Mailing":"",
            "Address":"3915 W. Hacienda, #A105",
            "City":"Las Vegas",
            "State":"NV",
            "Zip":"89118",
            "Direct":"702-579-7793",
            "Fax":"702-579-7795",
            "Email":"lasvegas_info@distributioninternational.com",
            "Hours":"6:00 AM - 4:00 PM, M-F"
        },
        "distance":12839.571877269538
    },
    {
        "layer":"Customer Care Centers",
        "name":"Hunt Valley, MD",
        "coordinates":[
            -76.6594099,
            39.4799148,
            "0"
        ],
        "extended":{
            "Representatives":"Ryan Splitt- Regional Manager\nTom Goonan, Branch Operations Manager\n",
            "rep-Regional Manager":"Ryan Splitt",
            "rep-Branch Manager":"Barry Allen",
            "rep-CSR":"Tom Goonan",
            "rep-Warehouse Manager":"",
            "rep-District Manager":"",
            "rep-Division Manager":"",
            "rep-Branch Operations Manager":"",
            "Mailing":"",
            "Address":"10942 Beaver Dam Road",
            "City":"Hunt Valley",
            "State":"MD",
            "Zip":"21030",
            "Direct":"410-785-4848",
            "Fax":"410-771-3233",
            "Email":"hunt_valley_info@distributioninternational.com",
            "Hours":"Office:7AM - 4PM Mon - Fri\nWarehouse: 5:30AM - 4PM Mon - Fri"
        },
        "distance":12859.948546915472
    },
    {
        "layer":"Customer Care Centers",
        "name":"Columbus, OH",
        "coordinates":[
            -82.94067670000001,
            39.9372166,
            "0"
        ],
        "extended":{
            "Representatives":"Gary Thompson, Regional Manager\nJim Samler, Branch Manager\nTerry Gandee, Customer Service Representative",
            "rep-Regional Manager":"Gary Thompson",
            "rep-Branch Manager":"Jim Samler",
            "rep-CSR":"Terry Gandee",
            "rep-Warehouse Manager":"",
            "rep-District Manager":"",
            "rep-Division Manager":"",
            "rep-Branch Operations Manager":"",
            "Mailing":"",
            "Address":"2078 Integrity Drive North",
            "City":"Columbus",
            "State":"OH",
            "Zip":"43209",
            "Direct":"614-745-0248",
            "Fax":"",
            "Email":"columbus_info@distributioninternational.com",
            "Hours":"6:00 AM - 4:00 PM, M-F"
        },
        "distance":12902.689613517457
    },
    {
        "layer":"Customer Care Centers",
        "name":"Irwindale, CA",
        "coordinates":[
            -117.9319483,
            34.1260371,
            "0"
        ],
        "extended":{
            "Representatives":"Alan Woloschuk, Regional Manager\nChris Chavarria, Warehouse Manager\n\n",
            "rep-Regional Manager":"Alan Woloschuk",
            "rep-Branch Manager":"",
            "rep-CSR":"",
            "rep-Warehouse Manager":"Chris Chavarria",
            "rep-District Manager":"",
            "rep-Division Manager":"",
            "rep-Branch Operations Manager":"",
            "Mailing":"",
            "Address":"16014 Adelante Street, Unit A ",
            "City":"Irwindale",
            "State":"CA",
            "Zip":"91702",
            "Direct":"626-334-8950",
            "Fax":"626-334-8957",
            "Email":"irwindale_info@distributioninternational.com",
            "Hours":"6:30 AM - 3:30 PM, M-F"
        },
        "distance":12918.469450460752
    },
    {
        "layer":"Customer Care Centers",
        "name":"Los Angeles, CA",
        "coordinates":[
            -118.1376073,
            33.9913964,
            "0"
        ],
        "extended":{
            "Representatives":"Alan Woloschuk, Regional Manager\nJeff Nixy, Branch Manager\nJanet Malone, CSR\n",
            "rep-Regional Manager":"Alan Woloschuk",
            "rep-Branch Manager":"Jeff Nixy",
            "rep-CSR":"Janet Malone",
            "rep-Warehouse Manager":"Tino Lozano",
            "rep-District Manager":"",
            "rep-Division Manager":"",
            "rep-Branch Operations Manager":"",
            "Mailing":"",
            "Address":"2741 South Yates Avenue",
            "City":"Los Angeles",
            "State":"CA",
            "Zip":"90040",
            "Direct":"323-278-8350",
            "Fax":"323-728-5489",
            "Email":"losangeles_info@distributioninternational.com",
            "Hours":"6:30 AM - 4:30 PM, M-F"
        },
        "distance":12922.340693093262
    },
    {
        "layer":"Customer Care Centers",
        "name":"Landover, MD",
        "coordinates":[
            -76.88993110000001,
            38.9296966,
            "0"
        ],
        "extended":{
            "Representatives":"Ryan Splitt- Regional Manager\nJuan Centeno, Branch Manager ",
            "rep-Regional Manager":"Ryan Splitt",
            "rep-Branch Manager":"Juan Centeno",
            "rep-CSR":"",
            "rep-Warehouse Manager":"",
            "rep-District Manager":"",
            "rep-Division Manager":"",
            "rep-Branch Operations Manager":"",
            "Mailing":"",
            "Address":"7100 Old Landover Road, Suite 230",
            "City":"Hyattsville",
            "State":"MD",
            "Zip":"20785",
            "Direct":"301-772-0220",
            "Fax":"301-386-3223",
            "Email":"landover_info@distributioninternational.com",
            "Hours":"5:30AM - 4PM Mon - Fri"
        },
        "distance":12924.033413621155
    },
    {
        "layer":"Customer Care Centers",
        "name":"Carson, CA",
        "coordinates":[
            -118.26189,
            33.8065522,
            "0"
        ],
        "extended":{
            "Representatives":"Richard Kemp, District Manager\nTheresa Patrick, Branch Manager\n",
            "rep-Regional Manager":"Alan Woloschuk",
            "rep-Branch Manager":"Theresa Patrick",
            "rep-CSR":"Jessica Hernandez",
            "rep-Warehouse Manager":"",
            "rep-District Manager":"",
            "rep-Division Manager":"",
            "rep-Branch Operations Manager":"",
            "Mailing":"",
            "Address":"24100 Broad St.",
            "City":"Carson",
            "State":"CA",
            "Zip":"90745",
            "Direct":"310-834-8275",
            "Fax":"310-834-5389",
            "Email":"carson_info@distributioninternational.com",
            "Hours":"7:00 AM - 4:30 PM, M-F"
        },
        "distance":12934.65815970616
    },
    {
        "layer":"Customer Care Centers",
        "name":"Alexandria, VA",
        "coordinates":[
            -77.1578729,
            38.7709905,
            "0"
        ],
        "extended":{
            "Representatives":"Ryan Splitt- Regional Manager\nRoss Farmer, Branch Operations Manager\n",
            "rep-Regional Manager":"Barry Allen",
            "rep-Branch Manager":"Ross Farmer",
            "rep-CSR":"",
            "rep-Warehouse Manager":"",
            "rep-District Manager":"",
            "rep-Division Manager":"",
            "rep-Branch Operations Manager":"",
            "Mailing":"",
            "Address":"6310-F Gravel Avenue",
            "City":"Alexandria",
            "State":"VA",
            "Zip":"22310",
            "Direct":"703-922-6530",
            "Fax":"703-971-5917",
            "Email":"alexandria_info@distributioninternational.com",
            "Hours":"6AM - 4PM Mon - Fri"
        },
        "distance":12946.390782273233
    },
    {
        "layer":"Customer Care Centers",
        "name":"Cincinnati, OH",
        "coordinates":[
            -84.478225,
            39.308095,
            "0"
        ],
        "extended":{
            "Representatives":"Gary Thompson, Regional Manager\nJustin Fiorini, Branch Manager\nBrittany Moore / Mike Trosper, Customer Service Representative\n",
            "rep-Regional Manager":"Gary Thompson",
            "rep-Branch Manager":"Justin Fiorini",
            "rep-CSR":"Brittany Moore / Mike Trosper",
            "rep-Warehouse Manager":"",
            "rep-District Manager":"",
            "rep-Division Manager":"",
            "rep-Branch Operations Manager":"",
            "Mailing":"",
            "Address":"236 Circle Freeway Drive",
            "City":"Cincinnati",
            "State":"OH",
            "Zip":"45246",
            "Direct":"513-417-8079",
            "Fax":"833-790-3057",
            "Email":"cincinnati_info@distributioninternational.com",
            "Hours":"6:00 AM - 5:00 PM, M-F"
        },
        "distance":12986.011481493193
    },
    {
        "layer":"Customer Care Centers",
        "name":"Nitro, WV",
        "coordinates":[
            -81.83668399999999,
            38.438681,
            "0"
        ],
        "extended":{
            "Representatives":"Gary Thompson, Regional Manager\nCharlton Smith, Customer Service Representative",
            "rep-Regional Manager":"Gary Thompson",
            "rep-Branch Manager":"",
            "rep-CSR":"Charlton Smith",
            "rep-Warehouse Manager":"",
            "rep-District Manager":"",
            "rep-Division Manager":"",
            "rep-Branch Operations Manager":"",
            "Mailing":"",
            "Address":"5 McJunkin Road",
            "City":"Nitro",
            "State":"WV",
            "Zip":"25143",
            "Direct":"304-204-2209",
            "Fax":"304-204-2212",
            "Email":"nitro_info@distributioninternational.com",
            "Hours":"7:30 AM - 5:00 PM, M-F"
        },
        "distance":13055.734880379146
    },
    {
        "layer":"Customer Care Centers",
        "name":"St. Louis, MO",
        "coordinates":[
            -90.2346536,
            38.6269391,
            "0"
        ],
        "extended":{
            "Representatives":"John Brooks, Regional Manager\nBrian Clark, Branch Operations Manager\nTammy Palko, CSR",
            "rep-Regional Manager":"John Brooks",
            "rep-Branch Manager":"Brian Clark",
            "rep-CSR":"Tammy Palko",
            "rep-Warehouse Manager":"Joe Jones",
            "rep-District Manager":"",
            "rep-Division Manager":"",
            "rep-Branch Operations Manager":"",
            "Mailing":"",
            "Address":"3515 Papin Street",
            "City":"St. Louis",
            "State":"MO",
            "Zip":"63103",
            "Direct":"314-633-4968",
            "Fax":"314-776-3019",
            "Email":"st._louis_info@distributioninternational.com",
            "Hours":"7:00 AM - 4:30 PM, M-F"
        },
        "distance":13081.415298893518
    },
    {
        "layer":"Customer Care Centers",
        "name":"Richmond Fabrication Shop, VA",
        "coordinates":[
            -77.3519192,
            37.51148999999999,
            "0"
        ],
        "extended":{
            "Representatives":"David Bickley, Regional Manager\nAnthony Mingo, Branch Manager",
            "rep-Regional Manager":"David Bickley",
            "rep-Branch Manager":"Anthony Mingo \"Mingo\"",
            "rep-CSR":"",
            "rep-Warehouse Manager":"",
            "rep-District Manager":"",
            "rep-Division Manager":"",
            "rep-Branch Operations Manager":"",
            "Mailing":"",
            "Address":"4820 Eubank Road",
            "City":"Richmond",
            "State":"VA",
            "Zip":"23231",
            "Direct":"804-222-8107",
            "Fax":"804-222-8109",
            "Email":"richmond_fabrication_shop_info@distributioninternational.com",
            "Hours":"7AM - 3:30PM Mon - Fri"
        },
        "distance":13086.752322196231
    },
    {
        "layer":"Customer Care Centers",
        "name":"Richmond, VA",
        "coordinates":[
            -77.3519192,
            37.51148999999999,
            "0"
        ],
        "extended":{
            "Representatives":"David Bickley, Regional Manager\nRobert Ziegenfuss, Branch Operations Manager\nBlake Sharp, CSR",
            "rep-Regional Manager":"David Bickley",
            "rep-Branch Manager":"Robert Ziegenfuss",
            "rep-CSR":"Blake Sharp",
            "rep-Warehouse Manager":"",
            "rep-District Manager":"",
            "rep-Division Manager":"",
            "rep-Branch Operations Manager":"",
            "Mailing":"",
            "Address":"4820 Eubank Road",
            "City":"Richmond",
            "State":"VA",
            "Zip":"23231",
            "Direct":"804-743-9091",
            "Fax":"804-743-9097",
            "Email":"richmond_info@distributioninternational.com",
            "Hours":"7AM - 4PM Mon - Fri"
        },
        "distance":13086.752322196231
    },
    {
        "layer":"Customer Care Centers",
        "name":"San Diego, CA",
        "coordinates":[
            -117.0971516,
            32.7217254,
            "0"
        ],
        "extended":{
            "Representatives":"Alan Woloschuk, Regional Manager\nLeesa Moen, Branch Manager\nJerry Nunez, Customer Service Representative",
            "rep-Regional Manager":"Alan Woloschuk",
            "rep-Branch Manager":"Leesa Moen",
            "rep-CSR":"Jerry Nunez",
            "rep-Warehouse Manager":"Ruben Tallez",
            "rep-District Manager":"",
            "rep-Division Manager":"",
            "rep-Branch Operations Manager":"",
            "Mailing":"",
            "Address":"4550 Federal Blvd.",
            "City":"San Diego",
            "State":"CA",
            "Zip":"92102",
            "Direct":"619-262-3016",
            "Fax":"619-262-2488",
            "Email":"sandiego_info@distributioninternational.com",
            "Hours":"6:00AM - 4:30PM, M-F"
        },
        "distance":13092.632142629041
    },
    {
        "layer":"Customer Care Centers",
        "name":"Hampton, VA",
        "coordinates":[
            -76.3963741,
            37.0135456,
            "0"
        ],
        "extended":{
            "Representatives":"David Bickley, Regional Manager\nSteve Green, Branch Manager\nJared Bright, CSR",
            "rep-Regional Manager":"David Bickley",
            "rep-Branch Manager":"Steve Green",
            "rep-CSR":"Stuart Davis",
            "rep-Warehouse Manager":"",
            "rep-District Manager":"",
            "rep-Division Manager":"",
            "rep-Branch Operations Manager":"",
            "Mailing":"",
            "Address":"603 Howmet Drive",
            "City":"Hampton",
            "State":"VA",
            "Zip":"23661",
            "Direct":"757-826-3570",
            "Fax":"757-826-4477",
            "Email":"hampton_info@distributioninternational.com",
            "Hours":"7AM - 4PM Mon - Fri"
        },
        "distance":13121.415796692405
    },
    {
        "layer":"Customer Care Centers",
        "name":"Roanoke, VA",
        "coordinates":[
            -79.9306719,
            37.3097044,
            "0"
        ],
        "extended":{
            "Representatives":"David Bickley, Regional Manager\nWayne Kefauver, CSR",
            "rep-Regional Manager":"David Bickley",
            "rep-Branch Manager":"",
            "rep-CSR":"",
            "rep-Warehouse Manager":"",
            "rep-District Manager":"",
            "rep-Division Manager":"",
            "rep-Branch Operations Manager":"",
            "Mailing":"",
            "Address":"721 Drew Avenue, NE",
            "City":"Roanoke",
            "State":"VA",
            "Zip":"24012",
            "Direct":"540-563-8850",
            "Fax":"540-563-8854",
            "Email":"roanoke_info@distributioninternational.com",
            "Hours":"7AM - 4PM Mon - Fri"
        },
        "distance":13153.530675687838
    },
    {
        "layer":"Customer Care Centers",
        "name":"Albuquerque, NM",
        "coordinates":[
            -106.6238806,
            35.1543877,
            "0"
        ],
        "extended":{
            "Representatives":"Alan Woloschuk, Regional Manager\nMatt Whittaker, Branch Manager",
            "rep-Regional Manager":"Alan Woloschuk",
            "rep-Branch Manager":"Matt Whittaker",
            "rep-CSR":"",
            "rep-Warehouse Manager":"",
            "rep-District Manager":"",
            "rep-Division Manager":"",
            "rep-Branch Operations Manager":"",
            "Mailing":"",
            "Address":"6711 Edith Blvd. Suite A",
            "City":"Albuquerque",
            "State":"NM",
            "Zip":"87113",
            "Direct":"505-843-7255",
            "Fax":"505-843-6737",
            "Email":"albuquerque_info@distributioninternational.com",
            "Hours":""
        },
        "distance":13225.813754404644
    },
    {
        "layer":"Customer Care Centers",
        "name":"Phoenix, AZ",
        "coordinates":[
            -112.0512699,
            33.4454649,
            "0"
        ],
        "extended":{
            "Representatives":"Alan Woloschuk, Regional Manager\nRamon Gallego, District Manager\nJacque Laborin, Branch Manager\nBrae Jones, Customer Service Manager",
            "rep-Regional Manager":"Alan Woloschuk",
            "rep-Branch Manager":"Jacque Laborin",
            "rep-CSR":"Brae Jones",
            "rep-Warehouse Manager":"Mike Beck",
            "rep-District Manager":"Ramon Gallego",
            "rep-Division Manager":"",
            "rep-Branch Operations Manager":"",
            "Mailing":"",
            "Address":"215 South 14th St.",
            "City":"Phoenix",
            "State":"AZ",
            "Zip":"85034",
            "Direct":"602-276-1361",
            "Fax":"602-271-9668",
            "Email":"phoenix_info@distributioninternational.com",
            "Hours":"5:30AM - 4:00PM Mon - Fri"
        },
        "distance":13227.027454999714
    },
    {
        "layer":"Customer Care Centers",
        "name":"Greensboro, NC",
        "coordinates":[
            -79.78196899999999,
            36.0310887,
            "0"
        ],
        "extended":{
            "Representatives":"David Bickley, Regional Manager\nDanny Wagoner, Branch Operations Manager\nJohnny Frazier, CSR",
            "rep-Regional Manager":"David Bickley",
            "rep-Branch Manager":"Danny Wagoner",
            "rep-CSR":"Randy Eddings",
            "rep-Warehouse Manager":"",
            "rep-District Manager":"",
            "rep-Division Manager":"",
            "rep-Branch Operations Manager":"",
            "Mailing":"",
            "Address":"3020 Thurston Avenue, Ste. A",
            "City":"Greensboro",
            "State":"NC",
            "Zip":"27406",
            "Direct":"336-273-6425",
            "Fax":"336-273-7604",
            "Email":"greensboro_info@distributioninternational.com",
            "Hours":"6:30AM - 4:30PM Mon - Fri"
        },
        "distance":13291.131146441892
    },
    {
        "layer":"Customer Care Centers",
        "name":"Gastonia, NC",
        "coordinates":[
            -81.18110159999999,
            35.2743558,
            "0"
        ],
        "extended":{
            "Representatives":"David Bickley, Regional Manager\nMatt Branch, Warehouse Manager",
            "rep-Regional Manager":"",
            "rep-Branch Manager":"",
            "rep-CSR":"",
            "rep-Warehouse Manager":"",
            "rep-District Manager":"",
            "rep-Division Manager":"",
            "rep-Branch Operations Manager":"",
            "Mailing":"",
            "Address":"112 E. Davidson Ave.",
            "City":"Gastonia",
            "State":"NC",
            "Zip":"28054",
            "Direct":"864-626-0653",
            "Fax":"",
            "Email":"gastonia_info@distributioninternational.com",
            "Hours":""
        },
        "distance":13395.206511874187
    },
    {
        "layer":"Customer Care Centers",
        "name":"Tucson, AZ",
        "coordinates":[
            -110.9122146,
            32.1862371,
            "0"
        ],
        "extended":{
            "Representatives":"Alan Woloschuk, Regional Manager\nRamon Gallego, District Manager\nLee Romo, CSR",
            "rep-Regional Manager":"Alan Woloschuk",
            "rep-Branch Manager":"Alfred Grijalva",
            "rep-CSR":"Leo Romo",
            "rep-Warehouse Manager":"",
            "rep-District Manager":"",
            "rep-Division Manager":"",
            "rep-Branch Operations Manager":"",
            "Mailing":"",
            "Address":"3761 E. 43rd Pl.",
            "City":"Tucson",
            "State":"AZ",
            "Zip":"85713",
            "Direct":"520-670-1157",
            "Fax":"520-790-1799",
            "Email":"tuscon_info@distributioninternational.com",
            "Hours":"7:00 AM - 4:00 PM, M-F"
        },
        "distance":13397.623433925799
    },
    {
        "layer":"Customer Care Centers",
        "name":"Greenville, SC",
        "coordinates":[
            -82.4317848,
            34.7733685,
            "0"
        ],
        "extended":{
            "Representatives":"David Bickley, Regional Manager\nRick Stephens, Branch Manager\nRicky Craig, CSR",
            "rep-Regional Manager":"David Bickley",
            "rep-Branch Manager":"Rick Stephens",
            "rep-CSR":"Todd Williams",
            "rep-Warehouse Manager":"",
            "rep-District Manager":"",
            "rep-Division Manager":"",
            "rep-Branch Operations Manager":"",
            "Mailing":"",
            "Address":"1501 Piedmont Hwy",
            "City":"Piedmont",
            "State":"SC",
            "Zip":"29673",
            "Direct":"864-299-1770",
            "Fax":"864-299-5211",
            "Email":"greenville_info@distributioninternational.com",
            "Hours":"7:30AM - 4:30PM Mon - Fri"
        },
        "distance":13466.733820552108
    },
    {
        "layer":"Customer Care Centers",
        "name":"Memphis, TN",
        "coordinates":[
            -89.9531525,
            35.0687513,
            "0"
        ],
        "extended":{
            "Representatives":"David Fischer, Regional Manager\nPhillip Pardue, District Manager\nTheresa Allen, CSR",
            "rep-Regional Manager":"Robert Hlavenka",
            "rep-Branch Manager":"Phillip Pardue",
            "rep-CSR":"Theresa Allen",
            "rep-Warehouse Manager":"Joe Taylor",
            "rep-District Manager":"",
            "rep-Division Manager":"",
            "rep-Branch Operations Manager":"",
            "Mailing":"",
            "Address":"3348 Democrat Rd",
            "City":"Memphis",
            "State":"TN",
            "Zip":"38118",
            "Direct":"901-947-4937",
            "Fax":"901-542-0801",
            "Email":"memphis_info@distributioninternational.com",
            "Hours":"7AM - 4PM Mon - Fri"
        },
        "distance":13477.28711591015
    },
    {
        "layer":"Customer Care Centers",
        "name":"Little Rock, AR",
        "coordinates":[
            -92.3197589,
            34.6753257,
            "0"
        ],
        "extended":{
            "Representatives":"David Fischer, Regional Manager\nTim Norwood, Branch Manager\nDaniel Linker, CSR",
            "rep-Regional Manager":"David Fischer",
            "rep-Branch Manager":"Tim Norwood",
            "rep-CSR":"Daniel Linker",
            "rep-Warehouse Manager":"Kenneth Collins",
            "rep-District Manager":"",
            "rep-Division Manager":"",
            "rep-Branch Operations Manager":"",
            "Mailing":"",
            "Address":"8124 Scott Hamilton Dr, Ste D",
            "City":"Little Rock",
            "State":"AR",
            "Zip":"72209",
            "Direct":"501-565-6433",
            "Fax":"501-568-6240",
            "Email":"littlerock@distributioninternational.com\n",
            "Hours":"7:00AM - 4:00PM, M-F"
        },
        "distance":13514.696543714306
    },
    {
        "layer":"Customer Care Centers",
        "name":"Lubbock, TX",
        "coordinates":[
            -101.8244079,
            33.55205249999999,
            "0"
        ],
        "extended":{
            "Representatives":"Alan Woloschuk, Regional Manager\nStefanie Rankin, Branch Manager\nMaci Baker / Debbie Kirkman / Deborah Pety, Customer Service Representatives\n",
            "rep-Regional Manager":"Alan Woloschuk",
            "rep-Branch Manager":"Stefanie Rankin ",
            "rep-CSR":"Maci Baker / Debbie Kirkman / Deborah Pety",
            "rep-Warehouse Manager":"",
            "rep-District Manager":"",
            "rep-Division Manager":"",
            "rep-Branch Operations Manager":"",
            "Mailing":"",
            "Address":"4602 Locust Ave.",
            "City":"Lubbock",
            "State":"TX",
            "Zip":"79404",
            "Direct":"806-747-3691",
            "Fax":"806-744-3855",
            "Email":"lubbock_info@distributioninternational.com",
            "Hours":"7:00 AM - 5:00 PM, M-F"
        },
        "distance":13515.3705414878
    },
    {
        "layer":"Customer Care Centers",
        "name":"Columbia, SC",
        "coordinates":[
            -81.0438096,
            34.0661574,
            "0"
        ],
        "extended":{
            "Representatives":"David Bickley, Regional Manager\nEarly Wilkens Jr., Branch Operations Manager ",
            "rep-Regional Manager":"David Bickley",
            "rep-Branch Manager":"Early Wilkins, Jr.",
            "rep-CSR":"",
            "rep-Warehouse Manager":"",
            "rep-District Manager":"",
            "rep-Division Manager":"",
            "rep-Branch Operations Manager":"",
            "Mailing":"",
            "Address":"95 Sunbelt Blvd., Ste C",
            "City":"Columbia",
            "State":"SC",
            "Zip":"29203",
            "Direct":"803-714-7151",
            "Fax":"803-714-7152",
            "Email":"columbia_info@distributioninternational.com",
            "Hours":"7:30AM - 4:30PM Mon - Fri"
        },
        "distance":13525.905496039324
    },
    {
        "layer":"Customer Care Centers",
        "name":"El Paso, TX",
        "coordinates":[
            -106.3770104,
            31.7481576,
            "0"
        ],
        "extended":{
            "Representatives":"Alan Woloschuk, Regional Manager\nMark Hernandez, Branch Manager",
            "rep-Regional Manager":"Alan Woloschuk",
            "rep-Branch Manager":"Mark Hernandez",
            "rep-CSR":"Norma Torres",
            "rep-Warehouse Manager":"",
            "rep-District Manager":"",
            "rep-Division Manager":"",
            "rep-Branch Operations Manager":"",
            "Mailing":"",
            "Address":"7344 Stiles Dr.",
            "City":"El Paso",
            "State":"TX",
            "Zip":"79915",
            "Direct":"915-772-8525",
            "Fax":"915-778--0176",
            "Email":"elpaso_info@distributioninternational.com",
            "Hours":""
        },
        "distance":13593.041047424447
    },
    {
        "layer":"Customer Care Centers",
        "name":"Dallas, TX- Commercial",
        "coordinates":[
            -96.8808419,
            32.7752182,
            "0"
        ],
        "extended":{
            "Representatives":"Randy Smith, Regional Manager\nRon Cox, Branch Manager\nMichael Erwin, CSR",
            "rep-Regional Manager":"Randy Smith",
            "rep-Branch Manager":"Ron Cox",
            "rep-CSR":"Craig Musick",
            "rep-Warehouse Manager":"",
            "rep-District Manager":"",
            "rep-Division Manager":"",
            "rep-Branch Operations Manager":"",
            "Mailing":"",
            "Address":"2322 French Settlement Rd., Ste. 300",
            "City":"Dallas",
            "State":"TX",
            "Zip":"75212",
            "Direct":"972-785-9900",
            "Fax":"",
            "Email":"dallas_commercial_info@distributioninternational.com",
            "Hours":""
        },
        "distance":13684.810618856389
    },
    {
        "layer":"Customer Care Centers",
        "name":"Dallas, TX- Z-Blok",
        "coordinates":[
            -96.8808419,
            32.7752182,
            "0"
        ],
        "extended":{
            "Representatives":"Randy Smith, Regional Manager\nMonty Phillips, Branch Manager\nErnie Davis, CSR",
            "rep-Regional Manager":"Randy Smith",
            "rep-Branch Manager":"Monty Phillips",
            "rep-CSR":"Ernie Davis",
            "rep-Warehouse Manager":"",
            "rep-District Manager":"",
            "rep-Division Manager":"",
            "rep-Branch Operations Manager":"",
            "Mailing":"",
            "Address":"2322 French Settlement Rd., Ste. 300",
            "City":"Dallas",
            "State":"TX",
            "Zip":"75212",
            "Direct":"469-499-0905",
            "Fax":"",
            "Email":"dallas_info@distributioninternational.com",
            "Hours":"Office M-F 7:30 - 4:30\nShipping and Receiving 7:00 - 3:30"
        },
        "distance":13684.810618856389
    },
    {
        "layer":"Customer Care Centers",
        "name":"Dallas, TX- MBI",
        "coordinates":[
            -96.8808419,
            32.7752182,
            "0"
        ],
        "extended":{
            "Representatives":"Randy Smith, Regional Manager\nApril Bryan, Branch Manager",
            "rep-Regional Manager":"Randy Smith",
            "rep-Branch Manager":"April Bryan",
            "rep-CSR":"",
            "rep-Warehouse Manager":"",
            "rep-District Manager":"",
            "rep-Division Manager":"",
            "rep-Branch Operations Manager":"",
            "Mailing":"",
            "Address":"2322 French Settlement Rd., Ste. 300",
            "City":"Dallas",
            "State":"TX",
            "Zip":"75212",
            "Direct":"214-637-0151",
            "Fax":"214-637-0165",
            "Email":"dallas_mbi_info@distributioninternational.com",
            "Hours":""
        },
        "distance":13684.810618856389
    },
    {
        "layer":"Customer Care Centers",
        "name":"Shreveport, LA",
        "coordinates":[
            -93.7677392,
            32.486139,
            "0"
        ],
        "extended":{
            "Representatives":"David Fischer, Regional Manager\nJohn McCall, Branch Manager\nDaniel Wallace, CSR          ",
            "rep-Regional Manager":"David Fischer",
            "rep-Branch Manager":"John McCall",
            "rep-CSR":"Daniel Wallace",
            "rep-Warehouse Manager":"",
            "rep-District Manager":"",
            "rep-Division Manager":"",
            "rep-Branch Operations Manager":"",
            "Mailing":"",
            "Address":"2405 Bell Street",
            "City":"Shreveport",
            "State":"LA",
            "Zip":"71103",
            "Direct":"318-424-2888",
            "Fax":"318-221-4239",
            "Email":"shreveport_info@distributioninternational.com",
            "Hours":"7:30AM - 4:30PM Mon - Fri"
        },
        "distance":13748.75197329434
    },
    {
        "layer":"Customer Care Centers",
        "name":"Jackson,MS",
        "coordinates":[
            -90.19305969999999,
            32.3332588,
            "0"
        ],
        "extended":{
            "Representatives":"David Fischer, Regional Manager\nJonathan Smith, Branch Operations Manager",
            "rep-Regional Manager":"David Fischer",
            "rep-Branch Manager":"Jonathan Smith",
            "rep-CSR":"",
            "rep-Warehouse Manager":"",
            "rep-District Manager":"",
            "rep-Division Manager":"",
            "rep-Branch Operations Manager":"",
            "Mailing":"",
            "Address":"2735 Bailey Avenue",
            "City":"Jackson",
            "State":"MS",
            "Zip":"39213",
            "Direct":"601-368-3000",
            "Fax":"601-368-3002",
            "Email":"jackson_info@distributioninternational.com",
            "Hours":"7AM-4PM Mon-Fri"
        },
        "distance":13781.235905271013
    },
    {
        "layer":"Customer Care Centers",
        "name":"Mobile, AL",
        "coordinates":[
            -88.1165851,
            30.716279,
            "0"
        ],
        "extended":{
            "Representatives":"David Fischer, Regional Manager\nChad Wade, Branch Manager\nEric Fincher, Customer Service Representative",
            "rep-Regional Manager":"David Fischer",
            "rep-Branch Manager":"Chad Wade",
            "rep-CSR":"Eric Fincher",
            "rep-Warehouse Manager":"Alonzo Kidd",
            "rep-District Manager":"",
            "rep-Division Manager":"",
            "rep-Branch Operations Manager":"",
            "Mailing":"",
            "Address":"1250 Armour Avenue",
            "City":"Mobile",
            "State":"AL",
            "Zip":"36617",
            "Direct":"251-471-4655",
            "Fax":"251-478-6602",
            "Email":"mobile_info@distributioninternational.com",
            "Hours":"7:30 AM - 4:30 PM M-F"
        },
        "distance":13959.385446615435
    },
    {
        "layer":"Customer Care Centers",
        "name":"Port Allen, LA",
        "coordinates":[
            -91.2106302,
            30.4370173,
            "0"
        ],
        "extended":{
            "Representatives":"David Fischer, Regional Manager\nJeremy Davis, District Manager\nKaren Hobgood, Customer Service Representative",
            "rep-Regional Manager":"David Fischer",
            "rep-Branch Manager":"",
            "rep-CSR":"Karen Hobgood / Allison Smith",
            "rep-Warehouse Manager":"Benny Lindsey",
            "rep-District Manager":"Jeremy Davis",
            "rep-Division Manager":"",
            "rep-Branch Operations Manager":"",
            "Mailing":"",
            "Address":"950 Mahaffey",
            "City":"Port Allen",
            "State":"LA",
            "Zip":"70767",
            "Direct":"225-343-9250",
            "Fax":"225-343-9299",
            "Email":"di-portallen@distributionintl.com\n",
            "Hours":"7:30 AM - 4:30 PM, M-F"
        },
        "distance":13989.906733506616
    },
    {
        "layer":"Customer Care Centers",
        "name":"Sulphur, LA",
        "coordinates":[
            -93.3176063,
            30.2374314,
            "0"
        ],
        "extended":{
            "Representatives":"Denise Trimble, District Manager\nDonna Higginbotham, Branch Manager\nTerri Richard, CSR",
            "rep-Regional Manager":"Denise Trimble",
            "rep-Branch Manager":"Donna Higginbotham",
            "rep-CSR":"Terri Richard",
            "rep-Warehouse Manager":"",
            "rep-District Manager":"",
            "rep-Division Manager":"",
            "rep-Branch Operations Manager":"",
            "Mailing":"",
            "Address":"4810 E. Napoleon Street",
            "City":"Sulphur",
            "State":"LA",
            "Zip":"70663",
            "Direct":"337-625-4567",
            "Fax":"337-625-8566",
            "Email":"sulfur_info@distributioninternational.com",
            "Hours":"7AM - 4PM Mon - Fri"
        },
        "distance":14001.34694334804
    },
    {
        "layer":"Customer Care Centers",
        "name":"Gonzales, LA",
        "coordinates":[
            -90.93269350000001,
            30.2206085,
            "0"
        ],
        "extended":{
            "Representatives":"David Fischer, Regional Manager\nJeremy Davis, District Manager\n Lisa Villeneuve, Customer Service Representative\nDebby Pittman, Operations Manager\n",
            "rep-Regional Manager":"David Fischer",
            "rep-Branch Manager":"",
            "rep-CSR":"Lisa Villeneuve",
            "rep-Warehouse Manager":"Tyrone Johnson",
            "rep-District Manager":"Jeremy Davis",
            "rep-Division Manager":"",
            "rep-Branch Operations Manager":"",
            "Mailing":"",
            "Address":"1517 South Edward Avenue",
            "City":"Gonzales",
            "State":"LA",
            "Zip":"70737",
            "Direct":"225-647-9682",
            "Fax":"225-647-3694",
            "Email":"gonzales_info@distributioninternational.com",
            "Hours":"7:30AM - 4:30PM Mon - Fri"
        },
        "distance":14014.747441872805
    },
    {
        "layer":"Customer Care Centers",
        "name":"San Antonio, TX",
        "coordinates":[
            -98.42879529999999,
            29.4499412,
            "0"
        ],
        "extended":{
            "Representatives":"Randy Smith, Regional Manager\nA.J. Broussard, Branch Manager\n",
            "rep-Regional Manager":"Randy Smith",
            "rep-Branch Manager":"A.J. Broussard",
            "rep-CSR":"",
            "rep-Warehouse Manager":"",
            "rep-District Manager":"",
            "rep-Division Manager":"",
            "rep-Branch Operations Manager":"",
            "Mailing":"",
            "Address":"1761 Shipman Drive",
            "City":"San Antonio",
            "State":"TX",
            "Zip":"78219",
            "Direct":"210-270-7563",
            "Fax":"210-271-7446",
            "Email":"sanantonio_info@distributionintl.com",
            "Hours":"6AM - 4PM Mon - Fri"
        },
        "distance":14026.9188103877
    },
    {
        "layer":"Customer Care Centers",
        "name":"Port Arthur, TX",
        "coordinates":[
            -93.95719749999999,
            29.9514813,
            "0"
        ],
        "extended":{
            "Representatives":"Denise Trimble, District Manager\nDarren Pecorino, CSR Manager\nTammy Hernandez, CSR",
            "rep-Regional Manager":"Denise Trimble",
            "rep-Branch Manager":"Darren Pecorino",
            "rep-CSR":"Tammy Hernandez",
            "rep-Warehouse Manager":"",
            "rep-District Manager":"",
            "rep-Division Manager":"",
            "rep-Branch Operations Manager":"",
            "Mailing":"",
            "Address":"6401 Twin City Hwy",
            "City":"Port Arthur",
            "State":"TX",
            "Zip":"77642",
            "Direct":"409-962-5684",
            "Fax":"409-962-8921",
            "Email":"port_arthur_info@distributioninternational.com",
            "Hours":"7:30AM - 4:30PM Mon - Fri"
        },
        "distance":14028.104829188207
    },
    {
        "layer":"Customer Care Centers",
        "name":"Houston, TX",
        "coordinates":[
            -95.2552222,
            29.8248143,
            "0"
        ],
        "extended":{
            "Representatives":"Greg Roth, Regional Manager\nLyssa Tupper, Branch Manager",
            "rep-Regional Manager":"Greg Roth",
            "rep-Branch Manager":"Lyssa Tupper",
            "rep-CSR":"",
            "rep-Warehouse Manager":"Gerald Martin",
            "rep-District Manager":"",
            "rep-Division Manager":"",
            "rep-Branch Operations Manager":"",
            "Mailing":"",
            "Address":"9000 Railwood Drive",
            "City":"Houston",
            "State":"TX",
            "Zip":"77078",
            "Direct":"713-428-3700",
            "Fax":"",
            "Email":"houston_info@distributioninternational.com",
            "Hours":"7:00 AM - 5:00 AM,  M-Sat"
        },
        "distance":14029.67400801588
    },
    {
        "layer":"Customer Care Centers",
        "name":"Corporate Headquarters- Houston, TX ",
        "coordinates":[
            -95.2552222,
            29.8248143,
            "0"
        ],
        "extended":{
            "Representatives":"David Wilken, Regional Manager\nFrank Brumini, CSR",
            "rep-Regional Manager":"David Wilken\n",
            "rep-Branch Manager":"",
            "rep-CSR":"Frank Brumini",
            "rep-Warehouse Manager":"",
            "rep-District Manager":"",
            "rep-Division Manager":"",
            "rep-Branch Operations Manager":"",
            "Mailing":"",
            "Address":"9000 Railwood Drive",
            "City":"Houston",
            "State":"TX",
            "Zip":"77078",
            "Direct":"713-428-3700",
            "Fax":"713-428-3777",
            "Email":"houston_info@distributioninternational.com",
            "Hours":"7AM - 5PM Mon - Fri"
        },
        "distance":14029.67400801588
    },
    {
        "layer":"Customer Care Centers",
        "name":"Houston, TX",
        "coordinates":[
            -95.283666,
            29.7824872,
            "0"
        ],
        "extended":{
            "Representatives":"Randy Smith, Regional Manager\nLloyd Houston, Branch Manager",
            "rep-Regional Manager":"Randy Smith",
            "rep-Branch Manager":"Lloyd Houston",
            "rep-CSR":"",
            "rep-Warehouse Manager":"",
            "rep-District Manager":"",
            "rep-Division Manager":"",
            "rep-Branch Operations Manager":"",
            "Mailing":"",
            "Address":"279 McCarty Street",
            "City":"Houston",
            "State":"TX",
            "Zip":"77029",
            "Direct":"713-660-6616",
            "Fax":"713-660-7727",
            "Email":"houston_info@distributioninternational.com",
            "Hours":""
        },
        "distance":14034.041749331913
    },
    {
        "layer":"Customer Care Centers",
        "name":"M.I.T. International - Houston, TX",
        "coordinates":[
            -95.2626569,
            29.76945259999999,
            "0"
        ],
        "extended":{
            "Representatives":"George Pruett, Branch Manager\n",
            "rep-Regional Manager":"George Pruett",
            "rep-Branch Manager":"George Pruett",
            "rep-CSR":"George Pruett",
            "rep-Warehouse Manager":"",
            "rep-District Manager":"",
            "rep-Division Manager":"",
            "rep-Branch Operations Manager":"",
            "Mailing":"",
            "Address":"8901 Market Street",
            "City":"Houston",
            "State":"TX",
            "Zip":"77029",
            "Direct":"713-675-0075",
            "Fax":"713-675-8393",
            "Email":"mit_info@distributioninternational.com",
            "Hours":"Office: 8AM - 5PM Mon - Fri\nProduction: 7AM - 3:30PM Mon - Fri"
        },
        "distance":14035.710358100569
    },
    {
        "layer":"Customer Care Centers",
        "name":"Warehouse - Houston, TX",
        "coordinates":[
            -95.3278151,
            29.6830779,
            "0"
        ],
        "extended":{
            "Representatives":"Greg Roth, Regional Manager\nAnnabel Guitierrez / Chris Soptick, Customer Service Representatives",
            "rep-Regional Manager":"Greg Roth",
            "rep-Branch Manager":"",
            "rep-CSR":"Annabel Guitierrez / Chris Soptick",
            "rep-Warehouse Manager":"Brandon Cavavos",
            "rep-District Manager":"",
            "rep-Division Manager":"",
            "rep-Branch Operations Manager":"",
            "Mailing":"",
            "Address":"6002 Murphy Street",
            "City":"Houston",
            "State":"TX",
            "Zip":"77033",
            "Direct":"713-428-3700",
            "Fax":"",
            "Email":"houston_info@distributioninternational.com",
            "Hours":"7:00 AM - 4:00 PM, M-F"
        },
        "distance":14044.541020627084
    },
    {
        "layer":"Customer Care Centers",
        "name":"New Orleans, LA",
        "coordinates":[
            -90.192602,
            29.9568392,
            "0"
        ],
        "extended":{
            "Representatives":"David Fischer, Regional Manager\nNancy Muller, Branch Manager\n",
            "rep-Regional Manager":"David Fischer",
            "rep-Branch Manager":"Nancy Muller",
            "rep-CSR":"",
            "rep-Warehouse Manager":"",
            "rep-District Manager":"",
            "rep-Division Manager":"",
            "rep-Branch Operations Manager":"",
            "Mailing":"",
            "Address":"1101 Edwards Avenue",
            "City":"Harahan",
            "State":"LA",
            "Zip":"70123",
            "Direct":"504-733-7770",
            "Fax":"504-734-7818",
            "Email":"new_orleans_info@distributioninternational.com",
            "Hours":"7:30AM - 4:30PM Mon - Fri"
        },
        "distance":14045.462973641235
    },
    {
        "layer":"Customer Care Centers",
        "name":"Freeport, TX",
        "coordinates":[
            -95.36437079999999,
            28.9660149,
            "0"
        ],
        "extended":{
            "Representatives":"Greg Roth, Regional Manager\nRuben Ramos, Warehouse Manager",
            "rep-Regional Manager":"Greg Roth",
            "rep-Branch Manager":"",
            "rep-CSR":"",
            "rep-Warehouse Manager":"Ruben Ramos",
            "rep-District Manager":"",
            "rep-Division Manager":"",
            "rep-Branch Operations Manager":"",
            "Mailing":"",
            "Address":"502 N. Gulf Boulevard",
            "City":"Freeport",
            "State":"TX",
            "Zip":"77541",
            "Direct":"979-233-9713",
            "Fax":"",
            "Email":"freeport_info@distributioninternational.com",
            "Hours":"7AM - 3:30PM Mon - Fri"
        },
        "distance":14123.341307104709
    },
    {
        "layer":"Customer Care Centers",
        "name":"Corpus Christi, TX",
        "coordinates":[
            -97.4496927,
            27.7936573,
            "0"
        ],
        "extended":{
            "Representatives":"Denise Trimble, District Manager\nDana Ruf, Branch Manager\nJerry Aumada, CSR",
            "rep-Regional Manager":"",
            "rep-Branch Manager":"Dana Ruf",
            "rep-CSR":"Lee Garcia",
            "rep-Warehouse Manager":"",
            "rep-District Manager":"Denise Trimble",
            "rep-Division Manager":"",
            "rep-Branch Operations Manager":"",
            "Mailing":"",
            "Address":"4733 Baldwin Boulevard",
            "City":"Corpus Christi",
            "State":"TX",
            "Zip":"78408",
            "Direct":"361-883-3651",
            "Fax":"361-883-3654",
            "Email":"Corpuschristi_info@distributionintl.com",
            "Hours":"9AM - 5PM Mon - Fri\nFriday: 7AM - 4:30PM (warehouse 5PM )\n24/7 hotline - 361-883-3651"
        },
        "distance":14224.44549228715
    }
];